	[
		{
			"name":"Poznan",
			"lat":"52.40",
			"lon":"16.92"
		},
		{
			"name":"Warszawa",
			"lat":"52.15",
			"lon":"21.00"
		},
		{
			"name":"Tokio",
			"lat":"35.65",
			"lon":"139.83"
		},
		{
			"name":"Rzym",
			"lat":"41.89",
			"lon":"12.51"
		},
		{
			"name":"Berlin",
			"lat":"52.52",
			"lon":"13.41"
		}
	]
